{
  "noeuds": [
    {
      "ville": "Charleville-Mzires",
      "latitude": 49.77,
      "longitude": 4.72
    },
    {
      "ville": "Chlons-en-Champagne",
      "latitude": 48.96,
      "longitude": 4.36
    },
    {
      "ville": "Thionville",
      "latitude": 49.36,
      "longitude": 6.17
    },
    {
      "ville": "pinal",
      "latitude": 48.18,
      "longitude": 6.45
    },
    {
      "ville": "Haguenau",
      "latitude": 48.82,
      "longitude": 7.78
    },
    {
      "ville": "Bar-le-Duc",
      "latitude": 48.77,
      "longitude": 5.16
    },
    {
      "ville": "Sarrebourg",
      "latitude": 48.73,
      "longitude": 7.05
    },
    {
      "ville": "Forbach",
      "latitude": 49.19,
      "longitude": 6.9
    },
    {
      "ville": "Sarreguemines",
      "latitude": 49.11,
      "longitude": 7.07
    },
    {
      "ville": "Saint-Di-des-Vosges",
      "latitude": 48.28,
      "longitude": 6.95
    },
    {
      "ville": "Troyes",
      "latitude": 48.3,
      "longitude": 4.08
    },
    {
      "ville": "Verdun",
      "latitude": 49.16,
      "longitude": 5.38
    },
    {
      "ville": "Vesoul",
      "latitude": 47.62,
      "longitude": 6.15
    },
    {
      "ville": "Briey",
      "latitude": 49.25,
      "longitude": 5.93
    },
    {
      "ville": "Colmar",
      "latitude": 48.08,
      "longitude": 7.36
    },
    {
      "ville": "Nancy",
      "latitude": 48.69,
      "longitude": 6.18
    },
    {
      "ville": "Mulhouse",
      "latitude": 47.75,
      "longitude": 7.34
    },
    {
      "ville": "Metz",
      "latitude": 49.12,
      "longitude": 6.17
    },
    {
      "ville": "Reims",
      "latitude": 49.26,
      "longitude": 4.03
    },
    {
      "ville": "Strasbourg",
      "latitude": 48.58,
      "longitude": 7.75
    }
  ],
  "aretes": [
    {
      "de": "Charleville-Mzires",
      "vers": "Briey"
    },
    {
      "de": "Verdun",
      "vers": "Charleville-Mzires"
    },
    {
      "de": "Metz",
      "vers": "Verdun"
    },
    {
      "de": "Thionville",
      "vers": "Metz"
    },
    {
      "de": "Briey",
      "vers": "Thionville"
    },
    {
      "de": "Nancy",
      "vers": "Forbach"
    },
    {
      "de": "Haguenau",
      "vers": "Nancy"
    },
    {
      "de": "Strasbourg",
      "vers": "Haguenau"
    },
    {
      "de": "Sarrebourg",
      "vers": "Strasbourg"
    },
    {
      "de": "Sarreguemines",
      "vers": "Sarrebourg"
    },
    {
      "de": "Forbach",
      "vers": "Sarreguemines"
    },
    {
      "de": "Mulhouse",
      "vers": "Vesoul"
    },
    {
      "de": "Colmar",
      "vers": "Mulhouse"
    },
    {
      "de": "Saint-Di-des-Vosges",
      "vers": "Colmar"
    },
    {
      "de": "pinal",
      "vers": "Saint-Di-des-Vosges"
    },
    {
      "de": "Vesoul",
      "vers": "pinal"
    },
    {
      "de": "Troyes",
      "vers": "Bar-le-Duc"
    },
    {
      "de": "Reims",
      "vers": "Troyes"
    },
    {
      "de": "Chlons-en-Champagne",
      "vers": "Reims"
    },
    {
      "de": "Bar-le-Duc",
      "vers": "Chlons-en-Champagne"
    }
  ]
}
